{
  "type": "FeatureCollection",
  "features": [
    {
      "geometry": {
        "coordinates": [
          -8.67,
          70.94
        ],
        "type": "Point"
      },
      "properties": {
        "id": 1001,
        "name": "Jan Mayen",
        "height": 9,
        "country": "Norway"
      },
      "type": "Feature"
    },
    {
      "geometry": {
        "coordinates": [
          13.63,
          78.06
        ],
        "type": "Point"
      },
      "properties": {
        "id": 1005,
        "name": "Isfjord Radio",
        "height": 9,
        "country": "Norway"
      },
      "type": "Feature"
    },
    {
      "geometry": {
        "coordinates": [
          11.93,
          78.92
        ],
        "type": "Point"
      },
      "properties": {
        "id": 1007,
        "name": "Ny-Alesund",
        "height": 8,
        "country": "Norway"
      },
      "type": "Feature"
    },
    {
      "geometry": {
        "coordinates": [
          15.5,
          78.25
        ],
        "type": "Point"
      },
      "properties": {
        "id": 1008,
        "name": "Svalbard",
        "height": 27,
        "country": "Norway"
      },
      "type": "Feature"
    },
    {
      "geometry": {
        "coordinates": [
          18.91,
          69.68
        ],
        "type": "Point"
      },
      "properties": {
        "id": 1025,
        "name": "Tromso/Langnes",
        "height": 9,
        "country": "Norway"
      },
      "type": "Feature"
    },
    {
      "geometry": {
        "coordinates": [
          18.94,
          69.65
        ],
        "type": "Point"
      },
      "properties": {
        "id": 1026,
        "name": "Tromso",
        "height": 114,
        "country": "Norway"
      },
      "type": "Feature"
    },
    {
      "geometry": {
        "coordinates": [
          19.0,
          74.5
        ],
        "type": "Point"
      },
      "properties": {
        "id": 1028,
        "name": "Bjornoya",
        "height": 16,
        "country": "Norway"
      },
      "type": "Feature"
    },
    {
      "geometry": {
        "coordinates": [
          25.5,
          69.46
        ],
        "type": "Point"
      },
      "properties": {
        "id": 1065,
        "name": "Karasjok",
        "height": 131,
        "country": "Norway"
      },
      "type": "Feature"
    },
    {
      "geometry": {
        "coordinates": [
          31.1,
          70.37
        ],
        "type": "Point"
      },
      "properties": {
        "id": 1098,
        "name": "Vardo",
        "height": 15,
        "country": "Norway"
      },
      "type": "Feature"
    },
    {
      "geometry": {
        "coordinates": [
          13.65,
          66.9
        ],
        "type": "Point"
      },
      "properties": {
        "id": 1114,
        "name": "Reipa",
        "height": 9,
        "country": "Norway"
      },
      "type": "Feature"
    },
    {
      "geometry": {
        "coordinates": [
          14.36,
          67.27
        ],
        "type": "Point"
      },
      "properties": {
        "id": 1152,
        "name": "Bodo",
        "height": 13,
        "country": "Norway"
      },
      "type": "Feature"
    },
    {
      "geometry": {
        "coordinates": [
          6.54,
          62.86
        ],
        "type": "Point"
      },
      "properties": {
        "id": 1212,
        "name": "Ona II",
        "height": 15,
        "country": "Norway"
      },
      "type": "Feature"
    },
    {
      "geometry": {
        "coordinates": [
          9.12,
          62.07
        ],
        "type": "Point"
      },
      "properties": {
        "id": 1233,
        "name": "Dombaas",
        "height": 638,
        "country": "Norway"
      },
      "type": "Feature"
    },
    {
      "geometry": {
        "coordinates": [
          9.05,
          62.1
        ],
        "type": "Point"
      },
      "properties": {
        "id": 1236,
        "name": "Kjoremsgrende",
        "height": 626,
        "country": "Norway"
      },
      "type": "Feature"
    },
    {
      "geometry": {
        "coordinates": [
          9.29,
          62.11
        ],
        "type": "Point"
      },
      "properties": {
        "id": 1238,
        "name": "Fokstugu",
        "height": 974,
        "country": "Norway"
      },
      "type": "Feature"
    },
    {
      "geometry": {
        "coordinates": [
          9.6,
          63.7
        ],
        "type": "Point"
      },
      "properties": {
        "id": 1241,
        "name": "Orland Airp.",
        "height": 9,
        "country": "Norway"
      },
      "type": "Feature"
    },
    {
      "geometry": {
        "coordinates": [
          10.43,
          63.42
        ],
        "type": "Point"
      },
      "properties": {
        "id": 1258,
        "name": "Trondheim/Moholt",
        "height": 118,
        "country": "Norway"
      },
      "type": "Feature"
    },
    {
      "geometry": {
        "coordinates": [
          10.94,
          63.46
        ],
        "type": "Point"
      },
      "properties": {
        "id": 1271,
        "name": "Trondheim Airp.",
        "height": 17,
        "country": "Norway"
      },
      "type": "Feature"
    },
    {
      "geometry": {
        "coordinates": [
          5.32,
          60.4
        ],
        "type": "Point"
      },
      "properties": {
        "id": 1316,
        "name": "Bergen/Fredriksberg",
        "height": 40,
        "country": "Norway"
      },
      "type": "Feature"
    },
    {
      "geometry": {
        "coordinates": [
          5.33,
          60.38
        ],
        "type": "Point"
      },
      "properties": {
        "id": 1317,
        "name": "Bergen",
        "height": 36,
        "country": "Norway"
      },
      "type": "Feature"
    },
    {
      "geometry": {
        "coordinates": [
          9.13,
          60.57
        ],
        "type": "Point"
      },
      "properties": {
        "id": 1373,
        "name": "Nesbyen",
        "height": 167,
        "country": "Norway"
      },
      "type": "Feature"
    },
    {
      "geometry": {
        "coordinates": [
          11.08,
          60.21
        ],
        "type": "Point"
      },
      "properties": {
        "id": 1384,
        "name": "Oslo-Gardermoen",
        "height": 208,
        "country": "Norway"
      },
      "type": "Feature"
    },
    {
      "geometry": {
        "coordinates": [
          11.37,
          61.19
        ],
        "type": "Point"
      },
      "properties": {
        "id": 1389,
        "name": "Rena Airp.",
        "height": 256,
        "country": "Norway"
      },
      "type": "Feature"
    },
    {
      "geometry": {
        "coordinates": [
          4.87,
          59.31
        ],
        "type": "Point"
      },
      "properties": {
        "id": 1403,
        "name": "Utsira Fyr",
        "height": 56,
        "country": "Norway"
      },
      "type": "Feature"
    },
    {
      "geometry": {
        "coordinates": [
          5.64,
          58.88
        ],
        "type": "Point"
      },
      "properties": {
        "id": 1415,
        "name": "Stavanger/Sola",
        "height": 9,
        "country": "Norway"
      },
      "type": "Feature"
    },
    {
      "geometry": {
        "coordinates": [
          8.79,
          58.4
        ],
        "type": "Point"
      },
      "properties": {
        "id": 1465,
        "name": "Torungen Fyr",
        "height": 15,
        "country": "Norway"
      },
      "type": "Feature"
    },
    {
      "geometry": {
        "coordinates": [
          10.72,
          59.94
        ],
        "type": "Point"
      },
      "properties": {
        "id": 1492,
        "name": "Oslo-Blindern",
        "height": 97,
        "country": "Norway"
      },
      "type": "Feature"
    },
    {
      "geometry": {
        "coordinates": [
          22.45,
          68.45
        ],
        "type": "Point"
      },
      "properties": {
        "id": 2080,
        "name": "Karesuando",
        "height": 330,
        "country": "Sweden"
      },
      "type": "Feature"
    },
    {
      "geometry": {
        "coordinates": [
          22.44,
          68.44
        ],
        "type": "Point"
      },
      "properties": {
        "id": 2081,
        "name": "Karesuando",
        "height": 332,
        "country": "Sweden"
      },
      "type": "Feature"
    },
    {
      "geometry": {
        "coordinates": [
          14.09,
          57.77
        ],
        "type": "Point"
      },
      "properties": {
        "id": 2087,
        "name": "J\u00f6nk\u00f6ping Airp.",
        "height": 226,
        "country": "Sweden"
      },
      "type": "Feature"
    },
    {
      "geometry": {
        "coordinates": [
          18.02,
          66.89
        ],
        "type": "Point"
      },
      "properties": {
        "id": 2119,
        "name": "Kvikkjokk Arrenjarka",
        "height": 317,
        "country": "Sweden"
      },
      "type": "Feature"
    },
    {
      "geometry": {
        "coordinates": [
          18.02,
          66.88
        ],
        "type": "Point"
      },
      "properties": {
        "id": 2120,
        "name": "Kvikkjokk-Arrenjarka",
        "height": 315,
        "country": "Sweden"
      },
      "type": "Feature"
    },
    {
      "geometry": {
        "coordinates": [
          17.7,
          65.01
        ],
        "type": "Point"
      },
      "properties": {
        "id": 2126,
        "name": "Gunnarn",
        "height": 275,
        "country": "Sweden"
      },
      "type": "Feature"
    },
    {
      "geometry": {
        "coordinates": [
          17.15,
          65.07
        ],
        "type": "Point"
      },
      "properties": {
        "id": 2127,
        "name": "Stensele",
        "height": 325,
        "country": "Sweden"
      },
      "type": "Feature"
    },
    {
      "geometry": {
        "coordinates": [
          17.68,
          65.02
        ],
        "type": "Point"
      },
      "properties": {
        "id": 2128,
        "name": "Gunnarn",
        "height": 281,
        "country": "Sweden"
      },
      "type": "Feature"
    },
    {
      "geometry": {
        "coordinates": [
          24.15,
          65.83
        ],
        "type": "Point"
      },
      "properties": {
        "id": 2196,
        "name": "Haparanda",
        "height": 6,
        "country": "Sweden"
      },
      "type": "Feature"
    },
    {
      "geometry": {
        "coordinates": [
          24.11,
          65.82
        ],
        "type": "Point"
      },
      "properties": {
        "id": 2197,
        "name": "Haparanda",
        "height": 15,
        "country": "Sweden"
      },
      "type": "Feature"
    },
    {
      "geometry": {
        "coordinates": [
          14.48,
          63.2
        ],
        "type": "Point"
      },
      "properties": {
        "id": 2226,
        "name": "Ostersund-Froson",
        "height": 375,
        "country": "Sweden"
      },
      "type": "Feature"
    },
    {
      "geometry": {
        "coordinates": [
          20.86,
          63.8
        ],
        "type": "Point"
      },
      "properties": {
        "id": 2287,
        "name": "Holmon",
        "height": 8,
        "country": "Sweden"
      },
      "type": "Feature"
    },
    {
      "geometry": {
        "coordinates": [
          20.75,
          63.6
        ],
        "type": "Point"
      },
      "properties": {
        "id": 2288,
        "name": "Holmogadd",
        "height": 6,
        "country": "Sweden"
      },
      "type": "Feature"
    },
    {
      "geometry": {
        "coordinates": [
          17.95,
          62.63
        ],
        "type": "Point"
      },
      "properties": {
        "id": 2361,
        "name": "Harnosand",
        "height": 8,
        "country": "Sweden"
      },
      "type": "Feature"
    },
    {
      "geometry": {
        "coordinates": [
          17.45,
          62.52
        ],
        "type": "Point"
      },
      "properties": {
        "id": 2366,
        "name": "Sundsvall-Timra Airp.",
        "height": 5,
        "country": "Sweden"
      },
      "type": "Feature"
    },
    {
      "geometry": {
        "coordinates": [
          13.71,
          60.68
        ],
        "type": "Point"
      },
      "properties": {
        "id": 2407,
        "name": "Malung",
        "height": 305,
        "country": "Sweden"
      },
      "type": "Feature"
    },
    {
      "geometry": {
        "coordinates": [
          13.7,
          60.68
        ],
        "type": "Point"
      },
      "properties": {
        "id": 2410,
        "name": "Malung",
        "height": 308,
        "country": "Sweden"
      },
      "type": "Feature"
    },
    {
      "geometry": {
        "coordinates": [
          13.34,
          59.44
        ],
        "type": "Point"
      },
      "properties": {
        "id": 2418,
        "name": "Karlstad Airp.",
        "height": 107,
        "country": "Sweden"
      },
      "type": "Feature"
    },
    {
      "geometry": {
        "coordinates": [
          17.93,
          59.36
        ],
        "type": "Point"
      },
      "properties": {
        "id": 2464,
        "name": "Stockholm/Bromma",
        "height": 15,
        "country": "Sweden"
      },
      "type": "Feature"
    },
    {
      "geometry": {
        "coordinates": [
          18.05,
          59.35
        ],
        "type": "Point"
      },
      "properties": {
        "id": 2485,
        "name": "Stockholm",
        "height": 44,
        "country": "Sweden"
      },
      "type": "Feature"
    },
    {
      "geometry": {
        "coordinates": [
          11.88,
          57.78
        ],
        "type": "Point"
      },
      "properties": {
        "id": 2512,
        "name": "Goteborg",
        "height": 16,
        "country": "Sweden"
      },
      "type": "Feature"
    },
    {
      "geometry": {
        "coordinates": [
          11.78,
          57.72
        ],
        "type": "Point"
      },
      "properties": {
        "id": 2514,
        "name": "Goteborg/Torslanda",
        "height": 8,
        "country": "Sweden"
      },
      "type": "Feature"
    },
    {
      "geometry": {
        "coordinates": [
          14.07,
          57.75
        ],
        "type": "Point"
      },
      "properties": {
        "id": 2550,
        "name": "Joenkoeping Airp.",
        "height": 226,
        "country": "Sweden"
      },
      "type": "Feature"
    },
    {
      "geometry": {
        "coordinates": [
          19.2,
          58.4
        ],
        "type": "Point"
      },
      "properties": {
        "id": 2584,
        "name": "Gotska Sandon",
        "height": 12,
        "country": "Sweden"
      },
      "type": "Feature"
    },
    {
      "geometry": {
        "coordinates": [
          19.2,
          58.39
        ],
        "type": "Point"
      },
      "properties": {
        "id": 2589,
        "name": "Gotska Sandon",
        "height": 17,
        "country": "Sweden"
      },
      "type": "Feature"
    },
    {
      "geometry": {
        "coordinates": [
          18.35,
          57.67
        ],
        "type": "Point"
      },
      "properties": {
        "id": 2590,
        "name": "Visby",
        "height": 51,
        "country": "Sweden"
      },
      "type": "Feature"
    },
    {
      "geometry": {
        "coordinates": [
          12.82,
          55.38
        ],
        "type": "Point"
      },
      "properties": {
        "id": 2616,
        "name": "Falsterbo",
        "height": 5,
        "country": "Sweden"
      },
      "type": "Feature"
    },
    {
      "geometry": {
        "coordinates": [
          26.05,
          61.2
        ],
        "type": "Point"
      },
      "properties": {
        "id": 2768,
        "name": "Heinola Asemantaus",
        "height": 92,
        "country": "Finland"
      },
      "type": "Feature"
    },
    {
      "geometry": {
        "coordinates": [
          29.32,
          61.8
        ],
        "type": "Point"
      },
      "properties": {
        "id": 2778,
        "name": "Punkaharju-Laukansaari",
        "height": 80,
        "country": "Finland"
      },
      "type": "Feature"
    },
    {
      "geometry": {
        "coordinates": [
          27.32,
          63.14
        ],
        "type": "Point"
      },
      "properties": {
        "id": 2788,
        "name": "Kuopio/Maaninka",
        "height": 91,
        "country": "Finland"
      },
      "type": "Feature"
    },
    {
      "geometry": {
        "coordinates": [
          29.23,
          63.23
        ],
        "type": "Point"
      },
      "properties": {
        "id": 2791,
        "name": "Juuka",
        "height": 116,
        "country": "Finland"
      },
      "type": "Feature"
    },
    {
      "geometry": {
        "coordinates": [
          20.79,
          69.05
        ],
        "type": "Point"
      },
      "properties": {
        "id": 2801,
        "name": "Kilpisjarvi",
        "height": 486,
        "country": "Finland"
      },
      "type": "Feature"
    },
    {
      "geometry": {
        "coordinates": [
          25.09,
          64.68
        ],
        "type": "Point"
      },
      "properties": {
        "id": 2803,
        "name": "Siikajoki-Revonlahti",
        "height": 50,
        "country": "Finland"
      },
      "type": "Feature"
    },
    {
      "geometry": {
        "coordinates": [
          27.02,
          69.76
        ],
        "type": "Point"
      },
      "properties": {
        "id": 2805,
        "name": "Utsjoki-Kevo",
        "height": 107,
        "country": "Finland"
      },
      "type": "Feature"
    },
    {
      "geometry": {
        "coordinates": [
          24.65,
          66.53
        ],
        "type": "Point"
      },
      "properties": {
        "id": 2812,
        "name": "Ylitornio-Meltosjarvi",
        "height": 93,
        "country": "Finland"
      },
      "type": "Feature"
    },
    {
      "geometry": {
        "coordinates": [
          23.68,
          67.96
        ],
        "type": "Point"
      },
      "properties": {
        "id": 2823,
        "name": "Muonio",
        "height": 239,
        "country": "Finland"
      },
      "type": "Feature"
    },
    {
      "geometry": {
        "coordinates": [
          22.55,
          60.39
        ],
        "type": "Point"
      },
      "properties": {
        "id": 2828,
        "name": "Kaarina-Yltoinen",
        "height": 5,
        "country": "Finland"
      },
      "type": "Feature"
    },
    {
      "geometry": {
        "coordinates": [
          24.8,
          60.6
        ],
        "type": "Point"
      },
      "properties": {
        "id": 2829,
        "name": "Hyvinkaa",
        "height": 88,
        "country": "Finland"
      },
      "type": "Feature"
    },
    {
      "geometry": {
        "coordinates": [
          22.49,
          62.94
        ],
        "type": "Point"
      },
      "properties": {
        "id": 2833,
        "name": "Seinajoki-Pelmaa",
        "height": 32,
        "country": "Finland"
      },
      "type": "Feature"
    },
    {
      "geometry": {
        "coordinates": [
          28.3,
          68.85
        ],
        "type": "Point"
      },
      "properties": {
        "id": 2835,
        "name": "Inari-Nellim",
        "height": 123,
        "country": "Finland"
      },
      "type": "Feature"
    },
    {
      "geometry": {
        "coordinates": [
          26.63,
          67.37
        ],
        "type": "Point"
      },
      "properties": {
        "id": 2836,
        "name": "Sodankyla",
        "height": 179,
        "country": "Finland"
      },
      "type": "Feature"
    },
    {
      "geometry": {
        "coordinates": [
          28.68,
          66.83
        ],
        "type": "Point"
      },
      "properties": {
        "id": 2849,
        "name": "Salla Myllytie",
        "height": 222,
        "country": "Finland"
      },
      "type": "Feature"
    },
    {
      "geometry": {
        "coordinates": [
          29.22,
          66.0
        ],
        "type": "Point"
      },
      "properties": {
        "id": 2869,
        "name": "Kuusamo Airport",
        "height": 266,
        "country": "Finland"
      },
      "type": "Feature"
    },
    {
      "geometry": {
        "coordinates": [
          25.37,
          64.93
        ],
        "type": "Point"
      },
      "properties": {
        "id": 2875,
        "name": "Oulu",
        "height": 15,
        "country": "Finland"
      },
      "type": "Feature"
    },
    {
      "geometry": {
        "coordinates": [
          29.0,
          64.9
        ],
        "type": "Point"
      },
      "properties": {
        "id": 2879,
        "name": "Suomusalmi",
        "height": 223,
        "country": "Finland"
      },
      "type": "Feature"
    },
    {
      "geometry": {
        "coordinates": [
          27.67,
          64.28
        ],
        "type": "Point"
      },
      "properties": {
        "id": 2897,
        "name": "Kajaani Airp.",
        "height": 134,
        "country": "Finland"
      },
      "type": "Feature"
    },
    {
      "geometry": {
        "coordinates": [
          21.77,
          63.05
        ],
        "type": "Point"
      },
      "properties": {
        "id": 2911,
        "name": "Vaasa Airp.",
        "height": 8,
        "country": "Finland"
      },
      "type": "Feature"
    },
    {
      "geometry": {
        "coordinates": [
          21.58,
          63.1
        ],
        "type": "Point"
      },
      "properties": {
        "id": 2912,
        "name": "Vaasa",
        "height": 14,
        "country": "Finland"
      },
      "type": "Feature"
    },
    {
      "geometry": {
        "coordinates": [
          29.61,
          62.66
        ],
        "type": "Point"
      },
      "properties": {
        "id": 2929,
        "name": "Joensuu Airp.",
        "height": 121,
        "country": "Finland"
      },
      "type": "Feature"
    },
    {
      "geometry": {
        "coordinates": [
          25.67,
          62.4
        ],
        "type": "Point"
      },
      "properties": {
        "id": 2935,
        "name": "Jyvaskyla Airp.",
        "height": 141,
        "country": "Finland"
      },
      "type": "Feature"
    },
    {
      "geometry": {
        "coordinates": [
          22.35,
          61.25
        ],
        "type": "Point"
      },
      "properties": {
        "id": 2937,
        "name": "Kokemaki Tulkkila",
        "height": 39,
        "country": "Finland"
      },
      "type": "Feature"
    },
    {
      "geometry": {
        "coordinates": [
          22.46,
          61.84
        ],
        "type": "Point"
      },
      "properties": {
        "id": 2942,
        "name": "Kankaanpaa Niinisalo",
        "height": 125,
        "country": "Finland"
      },
      "type": "Feature"
    },
    {
      "geometry": {
        "coordinates": [
          28.15,
          61.04
        ],
        "type": "Point"
      },
      "properties": {
        "id": 2958,
        "name": "Lappeenranta",
        "height": 106,
        "country": "Finland"
      },
      "type": "Feature"
    },
    {
      "geometry": {
        "coordinates": [
          23.5,
          60.81
        ],
        "type": "Point"
      },
      "properties": {
        "id": 2963,
        "name": "Jokioinen",
        "height": 104,
        "country": "Finland"
      },
      "type": "Feature"
    },
    {
      "geometry": {
        "coordinates": [
          22.27,
          60.52
        ],
        "type": "Point"
      },
      "properties": {
        "id": 2972,
        "name": "Turku Airp.",
        "height": 59,
        "country": "Finland"
      },
      "type": "Feature"
    },
    {
      "geometry": {
        "coordinates": [
          24.96,
          60.33
        ],
        "type": "Point"
      },
      "properties": {
        "id": 2974,
        "name": "Helsinki Vantaa-Airp.",
        "height": 54,
        "country": "Finland"
      },
      "type": "Feature"
    },
    {
      "geometry": {
        "coordinates": [
          24.94,
          60.18
        ],
        "type": "Point"
      },
      "properties": {
        "id": 2978,
        "name": "Helsinki Kaisaniemi",
        "height": 4,
        "country": "Finland"
      },
      "type": "Feature"
    },
    {
      "geometry": {
        "coordinates": [
          21.37,
          59.78
        ],
        "type": "Point"
      },
      "properties": {
        "id": 2981,
        "name": "Uto",
        "height": 7,
        "country": "Finland"
      },
      "type": "Feature"
    },
    {
      "geometry": {
        "coordinates": [
          -1.18,
          60.14
        ],
        "type": "Point"
      },
      "properties": {
        "id": 3005,
        "name": "Lerwick",
        "height": 82,
        "country": "United Kingdom of Great Britain and N.-Ireland"
      },
      "type": "Feature"
    },
    {
      "geometry": {
        "coordinates": [
          -2.9,
          58.95
        ],
        "type": "Point"
      },
      "properties": {
        "id": 3017,
        "name": "Kirkwall",
        "height": 26,
        "country": "United Kingdom of Great Britain and N.-Ireland"
      },
      "type": "Feature"
    },
    {
      "geometry": {
        "coordinates": [
          -6.32,
          58.21
        ],
        "type": "Point"
      },
      "properties": {
        "id": 3026,
        "name": "Stornoway Airp.",
        "height": 15,
        "country": "United Kingdom of Great Britain and N.-Ireland"
      },
      "type": "Feature"
    },
    {
      "geometry": {
        "coordinates": [
          -3.56,
          57.65
        ],
        "type": "Point"
      },
      "properties": {
        "id": 3066,
        "name": "Kinloss",
        "height": 5,
        "country": "United Kingdom of Great Britain and N.-Ireland"
      },
      "type": "Feature"
    },
    {
      "geometry": {
        "coordinates": [
          -2.21,
          57.21
        ],
        "type": "Point"
      },
      "properties": {
        "id": 3091,
        "name": "Aberdeen-Dyce",
        "height": 65,
        "country": "United Kingdom of Great Britain and N.-Ireland"
      },
      "type": "Feature"
    },
    {
      "geometry": {
        "coordinates": [
          -6.88,
          56.5
        ],
        "type": "Point"
      },
      "properties": {
        "id": 3100,
        "name": "Tiree",
        "height": 12,
        "country": "United Kingdom of Great Britain and N.-Ireland"
      },
      "type": "Feature"
    },
    {
      "geometry": {
        "coordinates": [
          -3.35,
          55.95
        ],
        "type": "Point"
      },
      "properties": {
        "id": 3160,
        "name": "Edinburgh Airp.",
        "height": 41,
        "country": "United Kingdom of Great Britain and N.-Ireland"
      },
      "type": "Feature"
    },
    {
      "geometry": {
        "coordinates": [
          -3.21,
          55.31
        ],
        "type": "Point"
      },
      "properties": {
        "id": 3162,
        "name": "Eskdalemuir",
        "height": 236,
        "country": "United Kingdom of Great Britain and N.-Ireland"
      },
      "type": "Feature"
    },
    {
      "geometry": {
        "coordinates": [
          -2.86,
          56.38
        ],
        "type": "Point"
      },
      "properties": {
        "id": 3171,
        "name": "Leuchars",
        "height": 12,
        "country": "United Kingdom of Great Britain and N.-Ireland"
      },
      "type": "Feature"
    },
    {
      "geometry": {
        "coordinates": [
          -1.53,
          54.3
        ],
        "type": "Point"
      },
      "properties": {
        "id": 3257,
        "name": "Leeming",
        "height": 33,
        "country": "United Kingdom of Great Britain and N.-Ireland"
      },
      "type": "Feature"
    },
    {
      "geometry": {
        "coordinates": [
          -4.54,
          53.25
        ],
        "type": "Point"
      },
      "properties": {
        "id": 3302,
        "name": "Valley Airp.",
        "height": 11,
        "country": "United Kingdom of Great Britain and N.-Ireland"
      },
      "type": "Feature"
    },
    {
      "geometry": {
        "coordinates": [
          -3.02,
          53.78
        ],
        "type": "Point"
      },
      "properties": {
        "id": 3318,
        "name": "Blackpool, Squires Gate",
        "height": 10,
        "country": "United Kingdom of Great Britain and N.-Ireland"
      },
      "type": "Feature"
    },
    {
      "geometry": {
        "coordinates": [
          -2.27,
          53.35
        ],
        "type": "Point"
      },
      "properties": {
        "id": 3334,
        "name": "Manchester Airp.",
        "height": 69,
        "country": "United Kingdom of Great Britain and N.-Ireland"
      },
      "type": "Feature"
    },
    {
      "geometry": {
        "coordinates": [
          -0.52,
          53.18
        ],
        "type": "Point"
      },
      "properties": {
        "id": 3377,
        "name": "Waddington",
        "height": 69,
        "country": "United Kingdom of Great Britain and N.-Ireland"
      },
      "type": "Feature"
    },
    {
      "geometry": {
        "coordinates": [
          -2.66,
          52.79
        ],
        "type": "Point"
      },
      "properties": {
        "id": 3414,
        "name": "Shawbury",
        "height": 72,
        "country": "United Kingdom of Great Britain and N.-Ireland"
      },
      "type": "Feature"
    },
    {
      "geometry": {
        "coordinates": [
          -4.57,
          52.14
        ],
        "type": "Point"
      },
      "properties": {
        "id": 3502,
        "name": "Aberporth",
        "height": 133,
        "country": "United Kingdom of Great Britain and N.-Ireland"
      },
      "type": "Feature"
    },
    {
      "geometry": {
        "coordinates": [
          -1.74,
          52.45
        ],
        "type": "Point"
      },
      "properties": {
        "id": 3534,
        "name": "Birmingham Airp.",
        "height": 99,
        "country": "United Kingdom of Great Britain and N.-Ireland"
      },
      "type": "Feature"
    },
    {
      "geometry": {
        "coordinates": [
          0.78,
          52.34
        ],
        "type": "Point"
      },
      "properties": {
        "id": 3586,
        "name": "Honington Airp.",
        "height": 51,
        "country": "United Kingdom of Great Britain and N.-Ireland"
      },
      "type": "Feature"
    },
    {
      "geometry": {
        "coordinates": [
          0.96,
          52.12
        ],
        "type": "Point"
      },
      "properties": {
        "id": 3590,
        "name": "Wattisham",
        "height": 90,
        "country": "United Kingdom of Great Britain and N.-Ireland"
      },
      "type": "Feature"
    },
    {
      "geometry": {
        "coordinates": [
          -3.35,
          51.4
        ],
        "type": "Point"
      },
      "properties": {
        "id": 3715,
        "name": "Cardiff Airp.",
        "height": 67,
        "country": "United Kingdom of Great Britain and N.-Ireland"
      },
      "type": "Feature"
    },
    {
      "geometry": {
        "coordinates": [
          -1.99,
          51.5
        ],
        "type": "Point"
      },
      "properties": {
        "id": 3740,
        "name": "Lyneham",
        "height": 145,
        "country": "United Kingdom of Great Britain and N.-Ireland"
      },
      "type": "Feature"
    },
    {
      "geometry": {
        "coordinates": [
          -0.45,
          51.48
        ],
        "type": "Point"
      },
      "properties": {
        "id": 3772,
        "name": "London-Heathrow",
        "height": 25,
        "country": "United Kingdom of Great Britain and N.-Ireland"
      },
      "type": "Feature"
    },
    {
      "geometry": {
        "coordinates": [
          -0.3,
          51.48
        ],
        "type": "Point"
      },
      "properties": {
        "id": 3775,
        "name": "Kew (Royal Botanic Garden)",
        "height": 6,
        "country": "United Kingdom of Great Britain and N.-Ireland"
      },
      "type": "Feature"
    },
    {
      "geometry": {
        "coordinates": [
          -0.18,
          51.15
        ],
        "type": "Point"
      },
      "properties": {
        "id": 3776,
        "name": "London/Gatwick Airp.",
        "height": 62,
        "country": "United Kingdom of Great Britain and N.-Ireland"
      },
      "type": "Feature"
    },
    {
      "geometry": {
        "coordinates": [
          1.34,
          51.35
        ],
        "type": "Point"
      },
      "properties": {
        "id": 3797,
        "name": "Manston",
        "height": 49,
        "country": "United Kingdom of Great Britain and N.-Ireland"
      },
      "type": "Feature"
    },
    {
      "geometry": {
        "coordinates": [
          -5.33,
          50.22
        ],
        "type": "Point"
      },
      "properties": {
        "id": 3808,
        "name": "Camborne",
        "height": 87,
        "country": "United Kingdom of Great Britain and N.-Ireland"
      },
      "type": "Feature"
    },
    {
      "geometry": {
        "coordinates": [
          -4.1,
          50.4
        ],
        "type": "Point"
      },
      "properties": {
        "id": 3827,
        "name": "Plymouth, Mount Batton",
        "height": 30,
        "country": "United Kingdom of Great Britain and N.-Ireland"
      },
      "type": "Feature"
    },
    {
      "geometry": {
        "coordinates": [
          -1.84,
          50.78
        ],
        "type": "Point"
      },
      "properties": {
        "id": 3862,
        "name": "Bournemouth Airp.",
        "height": 10,
        "country": "United Kingdom of Great Britain and N.-Ireland"
      },
      "type": "Feature"
    },
    {
      "geometry": {
        "coordinates": [
          -6.23,
          54.66
        ],
        "type": "Point"
      },
      "properties": {
        "id": 3917,
        "name": "Belfast Airp.",
        "height": 63,
        "country": "United Kingdom of Great Britain and N.-Ireland"
      },
      "type": "Feature"
    },
    {
      "geometry": {
        "coordinates": [
          -8.25,
          51.8
        ],
        "type": "Point"
      },
      "properties": {
        "id": 3952,
        "name": "Roches Point",
        "height": 3,
        "country": "Ireland"
      },
      "type": "Feature"
    },
    {
      "geometry": {
        "coordinates": [
          -10.24,
          51.94
        ],
        "type": "Point"
      },
      "properties": {
        "id": 3953,
        "name": "Valentia Observ.",
        "height": 25,
        "country": "Ireland"
      },
      "type": "Feature"
    },
    {
      "geometry": {
        "coordinates": [
          -8.48,
          51.85
        ],
        "type": "Point"
      },
      "properties": {
        "id": 3955,
        "name": "Cork Airp.",
        "height": 162,
        "country": "Ireland"
      },
      "type": "Feature"
    },
    {
      "geometry": {
        "coordinates": [
          -6.5,
          52.3
        ],
        "type": "Point"
      },
      "properties": {
        "id": 3956,
        "name": "Johnstown Castle",
        "height": 63,
        "country": "Ireland"
      },
      "type": "Feature"
    },
    {
      "geometry": {
        "coordinates": [
          -6.33,
          52.25
        ],
        "type": "Point"
      },
      "properties": {
        "id": 3957,
        "name": "Rosslare",
        "height": 25,
        "country": "Ireland"
      },
      "type": "Feature"
    },
    {
      "geometry": {
        "coordinates": [
          -7.27,
          52.65
        ],
        "type": "Point"
      },
      "properties": {
        "id": 3960,
        "name": "Kilkenny",
        "height": 65,
        "country": "Ireland"
      },
      "type": "Feature"
    },
    {
      "geometry": {
        "coordinates": [
          -8.92,
          52.7
        ],
        "type": "Point"
      },
      "properties": {
        "id": 3962,
        "name": "Shannon",
        "height": 20,
        "country": "Ireland"
      },
      "type": "Feature"
    },
    {
      "geometry": {
        "coordinates": [
          -9.02,
          53.28
        ],
        "type": "Point"
      },
      "properties": {
        "id": 3964,
        "name": "Galway",
        "height": 21,
        "country": "Ireland"
      },
      "type": "Feature"
    },
    {
      "geometry": {
        "coordinates": [
          -7.88,
          53.08
        ],
        "type": "Point"
      },
      "properties": {
        "id": 3965,
        "name": "Birr",
        "height": 72,
        "country": "Ireland"
      },
      "type": "Feature"
    },
    {
      "geometry": {
        "coordinates": [
          -6.43,
          53.3
        ],
        "type": "Point"
      },
      "properties": {
        "id": 3967,
        "name": "Dublin/Casement Airp.",
        "height": 93,
        "country": "Ireland"
      },
      "type": "Feature"
    },
    {
      "geometry": {
        "coordinates": [
          -6.3,
          53.42
        ],
        "type": "Point"
      },
      "properties": {
        "id": 3969,
        "name": "Dublin Airp.",
        "height": 85,
        "country": "Ireland"
      },
      "type": "Feature"
    },
    {
      "geometry": {
        "coordinates": [
          -8.98,
          53.72
        ],
        "type": "Point"
      },
      "properties": {
        "id": 3970,
        "name": "Claremorris",
        "height": 69,
        "country": "Ireland"
      },
      "type": "Feature"
    },
    {
      "geometry": {
        "coordinates": [
          -7.36,
          53.54
        ],
        "type": "Point"
      },
      "properties": {
        "id": 3971,
        "name": "Mullingar",
        "height": 101,
        "country": "Ireland"
      },
      "type": "Feature"
    },
    {
      "geometry": {
        "coordinates": [
          -8.81,
          53.91
        ],
        "type": "Point"
      },
      "properties": {
        "id": 3973,
        "name": "Knock Airp.",
        "height": 209,
        "country": "Ireland"
      },
      "type": "Feature"
    },
    {
      "geometry": {
        "coordinates": [
          -7.23,
          54.18
        ],
        "type": "Point"
      },
      "properties": {
        "id": 3974,
        "name": "Clones",
        "height": 87,
        "country": "Ireland"
      },
      "type": "Feature"
    },
    {
      "geometry": {
        "coordinates": [
          -10.01,
          54.23
        ],
        "type": "Point"
      },
      "properties": {
        "id": 3976,
        "name": "Belmullet",
        "height": 10,
        "country": "Ireland"
      },
      "type": "Feature"
    },
    {
      "geometry": {
        "coordinates": [
          -7.34,
          55.37
        ],
        "type": "Point"
      },
      "properties": {
        "id": 3980,
        "name": "Malin Head",
        "height": 21,
        "country": "Ireland"
      },
      "type": "Feature"
    },
    {
      "geometry": {
        "coordinates": [
          -22.73,
          65.07
        ],
        "type": "Point"
      },
      "properties": {
        "id": 4013,
        "name": "Stykkisholmur",
        "height": 16,
        "country": "Iceland"
      },
      "type": "Feature"
    },
    {
      "geometry": {
        "coordinates": [
          -22.6,
          63.98
        ],
        "type": "Point"
      },
      "properties": {
        "id": 4018,
        "name": "Keflavik Airp.",
        "height": 54,
        "country": "Iceland"
      },
      "type": "Feature"
    },
    {
      "geometry": {
        "coordinates": [
          -21.9,
          64.13
        ],
        "type": "Point"
      },
      "properties": {
        "id": 4030,
        "name": "Reykjavik",
        "height": 61,
        "country": "Iceland"
      },
      "type": "Feature"
    },
    {
      "geometry": {
        "coordinates": [
          -20.28,
          63.4
        ],
        "type": "Point"
      },
      "properties": {
        "id": 4048,
        "name": "Vestmannaeyjar",
        "height": 124,
        "country": "Iceland"
      },
      "type": "Feature"
    },
    {
      "geometry": {
        "coordinates": [
          -18.1,
          65.69
        ],
        "type": "Point"
      },
      "properties": {
        "id": 4063,
        "name": "Akureyri",
        "height": 27,
        "country": "Iceland"
      },
      "type": "Feature"
    },
    {
      "geometry": {
        "coordinates": [
          -15.22,
          64.3
        ],
        "type": "Point"
      },
      "properties": {
        "id": 4082,
        "name": "Hofn Airp.",
        "height": 21,
        "country": "Iceland"
      },
      "type": "Feature"
    },
    {
      "geometry": {
        "coordinates": [
          -43.14,
          60.05
        ],
        "type": "Point"
      },
      "properties": {
        "id": 4195,
        "name": "Prins Christianssund",
        "height": 75,
        "country": "Iceland"
      },
      "type": "Feature"
    },
    {
      "geometry": {
        "coordinates": [
          -56.14,
          72.79
        ],
        "type": "Point"
      },
      "properties": {
        "id": 4209,
        "name": "Upernavik Automat",
        "height": 63,
        "country": "Greenland"
      },
      "type": "Feature"
    },
    {
      "geometry": {
        "coordinates": [
          -56.14,
          72.79
        ],
        "type": "Point"
      },
      "properties": {
        "id": 4210,
        "name": "Upernavik",
        "height": 63,
        "country": "Greenland"
      },
      "type": "Feature"
    },
    {
      "geometry": {
        "coordinates": [
          -56.13,
          72.79
        ],
        "type": "Point"
      },
      "properties": {
        "id": 4211,
        "name": "Upernavik",
        "height": 130,
        "country": "Greenland"
      },
      "type": "Feature"
    },
    {
      "geometry": {
        "coordinates": [
          -52.85,
          68.71
        ],
        "type": "Point"
      },
      "properties": {
        "id": 4220,
        "name": "Aasiaat (Egedesminde)",
        "height": 41,
        "country": "Greenland"
      },
      "type": "Feature"
    },
    {
      "geometry": {
        "coordinates": [
          -51.75,
          64.17
        ],
        "type": "Point"
      },
      "properties": {
        "id": 4250,
        "name": "Nuuk (Godthaab)",
        "height": 84,
        "country": "Greenland"
      },
      "type": "Feature"
    },
    {
      "geometry": {
        "coordinates": [
          -45.42,
          61.16
        ],
        "type": "Point"
      },
      "properties": {
        "id": 4270,
        "name": "Narsarsuaq",
        "height": 31,
        "country": "Greenland"
      },
      "type": "Feature"
    },
    {
      "geometry": {
        "coordinates": [
          -33.37,
          83.66
        ],
        "type": "Point"
      },
      "properties": {
        "id": 4301,
        "name": "Kap Morris Jesup",
        "height": 4,
        "country": "Greenland"
      },
      "type": "Feature"
    },
    {
      "geometry": {
        "coordinates": [
          -16.7,
          81.6
        ],
        "type": "Point"
      },
      "properties": {
        "id": 4310,
        "name": "Station Nord",
        "height": 36,
        "country": "Greenland"
      },
      "type": "Feature"
    },
    {
      "geometry": {
        "coordinates": [
          -16.65,
          81.6
        ],
        "type": "Point"
      },
      "properties": {
        "id": 4312,
        "name": "Station Nord",
        "height": 36,
        "country": "Greenland"
      },
      "type": "Feature"
    },
    {
      "geometry": {
        "coordinates": [
          -18.67,
          76.77
        ],
        "type": "Point"
      },
      "properties": {
        "id": 4320,
        "name": "Danmarkshavn",
        "height": 12,
        "country": "Greenland"
      },
      "type": "Feature"
    },
    {
      "geometry": {
        "coordinates": [
          -21.95,
          70.49
        ],
        "type": "Point"
      },
      "properties": {
        "id": 4339,
        "name": "Ittoqqortoormiit (Scoresbysund)",
        "height": 72,
        "country": "Greenland"
      },
      "type": "Feature"
    },
    {
      "geometry": {
        "coordinates": [
          -21.97,
          70.42
        ],
        "type": "Point"
      },
      "properties": {
        "id": 4340,
        "name": "Cape Tobin",
        "height": 41,
        "country": "Greenland"
      },
      "type": "Feature"
    },
    {
      "geometry": {
        "coordinates": [
          -37.64,
          65.61
        ],
        "type": "Point"
      },
      "properties": {
        "id": 4360,
        "name": "Tasiilaq (Ammassalik)",
        "height": 56,
        "country": "Greenland"
      },
      "type": "Feature"
    },
    {
      "geometry": {
        "coordinates": [
          -43.17,
          60.06
        ],
        "type": "Point"
      },
      "properties": {
        "id": 4390,
        "name": "Ikerasassuaq (Christian Sund)",
        "height": 75,
        "country": "Greenland"
      },
      "type": "Feature"
    },
    {
      "geometry": {
        "coordinates": [
          -6.76,
          62.02
        ],
        "type": "Point"
      },
      "properties": {
        "id": 6011,
        "name": "Thorshavn",
        "height": 56,
        "country": "Faroe Islands"
      },
      "type": "Feature"
    },
    {
      "geometry": {
        "coordinates": [
          9.85,
          57.1
        ],
        "type": "Point"
      },
      "properties": {
        "id": 6030,
        "name": "Aalborg Airp.",
        "height": 13,
        "country": "Denmark"
      },
      "type": "Feature"
    },
    {
      "geometry": {
        "coordinates": [
          12.54,
          55.69
        ],
        "type": "Point"
      },
      "properties": {
        "id": 6186,
        "name": "Koebenhavn",
        "height": 9,
        "country": "Denmark"
      },
      "type": "Feature"
    },
    {
      "geometry": {
        "coordinates": [
          14.75,
          55.07
        ],
        "type": "Point"
      },
      "properties": {
        "id": 6190,
        "name": "Bornholms Lufhavn",
        "height": 17,
        "country": "Denmark"
      },
      "type": "Feature"
    },
    {
      "geometry": {
        "coordinates": [
          15.09,
          55.0
        ],
        "type": "Point"
      },
      "properties": {
        "id": 6199,
        "name": "Dueodde",
        "height": 6,
        "country": "Denmark"
      },
      "type": "Feature"
    },
    {
      "geometry": {
        "coordinates": [
          4.78,
          52.93
        ],
        "type": "Point"
      },
      "properties": {
        "id": 6235,
        "name": "De Kooij",
        "height": 1,
        "country": "Netherlands"
      },
      "type": "Feature"
    },
    {
      "geometry": {
        "coordinates": [
          5.18,
          52.1
        ],
        "type": "Point"
      },
      "properties": {
        "id": 6260,
        "name": "De Bilt",
        "height": 4,
        "country": "Netherlands"
      },
      "type": "Feature"
    },
    {
      "geometry": {
        "coordinates": [
          6.58,
          53.12
        ],
        "type": "Point"
      },
      "properties": {
        "id": 6280,
        "name": "Groningen Airp.",
        "height": 4,
        "country": "Netherlands"
      },
      "type": "Feature"
    },
    {
      "geometry": {
        "coordinates": [
          3.6,
          51.44
        ],
        "type": "Point"
      },
      "properties": {
        "id": 6310,
        "name": "Vlissingen",
        "height": 10,
        "country": "Netherlands"
      },
      "type": "Feature"
    },
    {
      "geometry": {
        "coordinates": [
          5.76,
          50.91
        ],
        "type": "Point"
      },
      "properties": {
        "id": 6380,
        "name": "Maastricht Airp.",
        "height": 113,
        "country": "Netherlands"
      },
      "type": "Feature"
    },
    {
      "geometry": {
        "coordinates": [
          4.36,
          50.8
        ],
        "type": "Point"
      },
      "properties": {
        "id": 6447,
        "name": "Bruessel (Uccle)",
        "height": 101,
        "country": "Belgium"
      },
      "type": "Feature"
    },
    {
      "geometry": {
        "coordinates": [
          6.22,
          49.62
        ],
        "type": "Point"
      },
      "properties": {
        "id": 6590,
        "name": "Luxembourg",
        "height": 376,
        "country": "Luxembourg"
      },
      "type": "Feature"
    },
    {
      "geometry": {
        "coordinates": [
          7.58,
          47.54
        ],
        "type": "Point"
      },
      "properties": {
        "id": 6601,
        "name": "Basel-Binningen",
        "height": 317,
        "country": "Switzerland"
      },
      "type": "Feature"
    },
    {
      "geometry": {
        "coordinates": [
          6.94,
          46.81
        ],
        "type": "Point"
      },
      "properties": {
        "id": 6610,
        "name": "Payerne",
        "height": 491,
        "country": "Switzerland"
      },
      "type": "Feature"
    },
    {
      "geometry": {
        "coordinates": [
          7.46,
          46.99
        ],
        "type": "Point"
      },
      "properties": {
        "id": 6631,
        "name": "Bern-Zollikofen",
        "height": 552,
        "country": "Switzerland"
      },
      "type": "Feature"
    },
    {
      "geometry": {
        "coordinates": [
          8.57,
          47.38
        ],
        "type": "Point"
      },
      "properties": {
        "id": 6660,
        "name": "Zuerich/Fluntern",
        "height": 558,
        "country": "Switzerland"
      },
      "type": "Feature"
    },
    {
      "geometry": {
        "coordinates": [
          9.34,
          47.25
        ],
        "type": "Point"
      },
      "properties": {
        "id": 6680,
        "name": "Saentis",
        "height": 2494,
        "country": "Switzerland"
      },
      "type": "Feature"
    },
    {
      "geometry": {
        "coordinates": [
          6.13,
          46.25
        ],
        "type": "Point"
      },
      "properties": {
        "id": 6700,
        "name": "Geneve Airp.",
        "height": 413,
        "country": "Switzerland"
      },
      "type": "Feature"
    },
    {
      "geometry": {
        "coordinates": [
          6.23,
          46.4
        ],
        "type": "Point"
      },
      "properties": {
        "id": 6705,
        "name": "Nyon",
        "height": 459,
        "country": "Switzerland"
      },
      "type": "Feature"
    },
    {
      "geometry": {
        "coordinates": [
          7.17,
          45.87
        ],
        "type": "Point"
      },
      "properties": {
        "id": 6717,
        "name": "Col du Grand St. Bernard",
        "height": 2487,
        "country": "Switzerland"
      },
      "type": "Feature"
    },
    {
      "geometry": {
        "coordinates": [
          7.33,
          46.22
        ],
        "type": "Point"
      },
      "properties": {
        "id": 6720,
        "name": "Sion",
        "height": 483,
        "country": "Switzerland"
      },
      "type": "Feature"
    },
    {
      "geometry": {
        "coordinates": [
          8.96,
          46.01
        ],
        "type": "Point"
      },
      "properties": {
        "id": 6770,
        "name": "Lugano",
        "height": 301,
        "country": "Switzerland"
      },
      "type": "Feature"
    },
    {
      "geometry": {
        "coordinates": [
          1.83,
          50.14
        ],
        "type": "Point"
      },
      "properties": {
        "id": 7005,
        "name": "Abbeville",
        "height": 72,
        "country": "France"
      },
      "type": "Feature"
    },
    {
      "geometry": {
        "coordinates": [
          3.1,
          50.57
        ],
        "type": "Point"
      },
      "properties": {
        "id": 7015,
        "name": "Lille-Lesquin",
        "height": 47,
        "country": "France"
      },
      "type": "Feature"
    },
    {
      "geometry": {
        "coordinates": [
          -1.94,
          49.72
        ],
        "type": "Point"
      },
      "properties": {
        "id": 7020,
        "name": "Cap de la Hague",
        "height": 8,
        "country": "France"
      },
      "type": "Feature"
    },
    {
      "geometry": {
        "coordinates": [
          -1.47,
          49.65
        ],
        "type": "Point"
      },
      "properties": {
        "id": 7024,
        "name": "Cherbourg-Maupertus",
        "height": 138,
        "country": "France"
      },
      "type": "Feature"
    },
    {
      "geometry": {
        "coordinates": [
          -0.46,
          49.18
        ],
        "type": "Point"
      },
      "properties": {
        "id": 7027,
        "name": "Caen-Carpiquet",
        "height": 67,
        "country": "France"
      },
      "type": "Feature"
    },
    {
      "geometry": {
        "coordinates": [
          1.18,
          49.38
        ],
        "type": "Point"
      },
      "properties": {
        "id": 7037,
        "name": "Rouen-Boos",
        "height": 152,
        "country": "France"
      },
      "type": "Feature"
    },
    {
      "geometry": {
        "coordinates": [
          4.03,
          49.3
        ],
        "type": "Point"
      },
      "properties": {
        "id": 7070,
        "name": "Reims-Courcy",
        "height": 91,
        "country": "France"
      },
      "type": "Feature"
    },
    {
      "geometry": {
        "coordinates": [
          4.15,
          49.21
        ],
        "type": "Point"
      },
      "properties": {
        "id": 7072,
        "name": "Reims-Prunay",
        "height": 95,
        "country": "France"
      },
      "type": "Feature"
    },
    {
      "geometry": {
        "coordinates": [
          -5.06,
          48.47
        ],
        "type": "Point"
      },
      "properties": {
        "id": 7100,
        "name": "Ile-d'Ouessant",
        "height": 67,
        "country": "France"
      },
      "type": "Feature"
    },
    {
      "geometry": {
        "coordinates": [
          -4.41,
          48.44
        ],
        "type": "Point"
      },
      "properties": {
        "id": 7110,
        "name": "Brest-Guipavas",
        "height": 95,
        "country": "France"
      },
      "type": "Feature"
    },
    {
      "geometry": {
        "coordinates": [
          -3.48,
          48.83
        ],
        "type": "Point"
      },
      "properties": {
        "id": 7117,
        "name": "Ploumanac'h",
        "height": 58,
        "country": "France"
      },
      "type": "Feature"
    },
    {
      "geometry": {
        "coordinates": [
          -1.73,
          48.07
        ],
        "type": "Point"
      },
      "properties": {
        "id": 7130,
        "name": "Rennes Airp.",
        "height": 37,
        "country": "France"
      },
      "type": "Feature"
    },
    {
      "geometry": {
        "coordinates": [
          0.11,
          48.45
        ],
        "type": "Point"
      },
      "properties": {
        "id": 7139,
        "name": "Alencon",
        "height": 145,
        "country": "France"
      },
      "type": "Feature"
    },
    {
      "geometry": {
        "coordinates": [
          2.02,
          48.77
        ],
        "type": "Point"
      },
      "properties": {
        "id": 7145,
        "name": "Trappes",
        "height": 168,
        "country": "France"
      },
      "type": "Feature"
    },
    {
      "geometry": {
        "coordinates": [
          2.38,
          48.72
        ],
        "type": "Point"
      },
      "properties": {
        "id": 7149,
        "name": "Paris-Orly",
        "height": 90,
        "country": "France"
      },
      "type": "Feature"
    },
    {
      "geometry": {
        "coordinates": [
          2.45,
          48.97
        ],
        "type": "Point"
      },
      "properties": {
        "id": 7150,
        "name": "Paris/Le Bourget",
        "height": 67,
        "country": "France"
      },
      "type": "Feature"
    },
    {
      "geometry": {
        "coordinates": [
          4.02,
          48.32
        ],
        "type": "Point"
      },
      "properties": {
        "id": 7168,
        "name": "Troyes-Barberey",
        "height": 118,
        "country": "France"
      },
      "type": "Feature"
    },
    {
      "geometry": {
        "coordinates": [
          6.22,
          48.69
        ],
        "type": "Point"
      },
      "properties": {
        "id": 7180,
        "name": "Nancy-Essey",
        "height": 213,
        "country": "France"
      },
      "type": "Feature"
    },
    {
      "geometry": {
        "coordinates": [
          5.96,
          48.58
        ],
        "type": "Point"
      },
      "properties": {
        "id": 7181,
        "name": "Nancy-Ochey",
        "height": 343,
        "country": "France"
      },
      "type": "Feature"
    },
    {
      "geometry": {
        "coordinates": [
          7.64,
          48.55
        ],
        "type": "Point"
      },
      "properties": {
        "id": 7190,
        "name": "Strasbourg-Entzheim Airp.",
        "height": 154,
        "country": "France"
      },
      "type": "Feature"
    },
    {
      "geometry": {
        "coordinates": [
          -3.22,
          47.3
        ],
        "type": "Point"
      },
      "properties": {
        "id": 7207,
        "name": "Belle Ile-Le Talut",
        "height": 43,
        "country": "France"
      },
      "type": "Feature"
    },
    {
      "geometry": {
        "coordinates": [
          -1.61,
          47.15
        ],
        "type": "Point"
      },
      "properties": {
        "id": 7222,
        "name": "Nantes-Bouguenais",
        "height": 26,
        "country": "France"
      },
      "type": "Feature"
    },
    {
      "geometry": {
        "coordinates": [
          0.73,
          47.44
        ],
        "type": "Point"
      },
      "properties": {
        "id": 7240,
        "name": "Tours",
        "height": 112,
        "country": "France"
      },
      "type": "Feature"
    },
    {
      "geometry": {
        "coordinates": [
          2.36,
          47.06
        ],
        "type": "Point"
      },
      "properties": {
        "id": 7255,
        "name": "Bourges",
        "height": 166,
        "country": "France"
      },
      "type": "Feature"
    },
    {
      "geometry": {
        "coordinates": [
          3.55,
          47.8
        ],
        "type": "Point"
      },
      "properties": {
        "id": 7265,
        "name": "Auxerre",
        "height": 207,
        "country": "France"
      },
      "type": "Feature"
    },
    {
      "geometry": {
        "coordinates": [
          5.09,
          47.27
        ],
        "type": "Point"
      },
      "properties": {
        "id": 7280,
        "name": "Dijon-Longvic",
        "height": 227,
        "country": "France"
      },
      "type": "Feature"
    },
    {
      "geometry": {
        "coordinates": [
          7.51,
          47.61
        ],
        "type": "Point"
      },
      "properties": {
        "id": 7299,
        "name": "Bale-Mulhouse Airp.",
        "height": 273,
        "country": "France"
      },
      "type": "Feature"
    },
    {
      "geometry": {
        "coordinates": [
          -1.41,
          46.05
        ],
        "type": "Point"
      },
      "properties": {
        "id": 7314,
        "name": "Pointe de Chassiron",
        "height": 23,
        "country": "France"
      },
      "type": "Feature"
    },
    {
      "geometry": {
        "coordinates": [
          0.31,
          46.59
        ],
        "type": "Point"
      },
      "properties": {
        "id": 7335,
        "name": "Poitiers",
        "height": 120,
        "country": "France"
      },
      "type": "Feature"
    },
    {
      "geometry": {
        "coordinates": [
          1.18,
          45.86
        ],
        "type": "Point"
      },
      "properties": {
        "id": 7434,
        "name": "Limoges-Bellegarde",
        "height": 403,
        "country": "France"
      },
      "type": "Feature"
    },
    {
      "geometry": {
        "coordinates": [
          1.28,
          45.82
        ],
        "type": "Point"
      },
      "properties": {
        "id": 7435,
        "name": "Limoges",
        "height": 284,
        "country": "France"
      },
      "type": "Feature"
    },
    {
      "geometry": {
        "coordinates": [
          3.15,
          45.79
        ],
        "type": "Point"
      },
      "properties": {
        "id": 7460,
        "name": "Clermont-Ferrand",
        "height": 326,
        "country": "France"
      },
      "type": "Feature"
    },
    {
      "geometry": {
        "coordinates": [
          3.76,
          45.07
        ],
        "type": "Point"
      },
      "properties": {
        "id": 7471,
        "name": "Le Puy-Loudes Airp.",
        "height": 833,
        "country": "France"
      },
      "type": "Feature"
    },
    {
      "geometry": {
        "coordinates": [
          4.94,
          45.73
        ],
        "type": "Point"
      },
      "properties": {
        "id": 7480,
        "name": "Lyon-Bron",
        "height": 198,
        "country": "France"
      },
      "type": "Feature"
    },
    {
      "geometry": {
        "coordinates": [
          5.08,
          45.73
        ],
        "type": "Point"
      },
      "properties": {
        "id": 7481,
        "name": "Lyon /St. Exupery Airp.",
        "height": 240,
        "country": "France"
      },
      "type": "Feature"
    },
    {
      "geometry": {
        "coordinates": [
          -0.69,
          44.83
        ],
        "type": "Point"
      },
      "properties": {
        "id": 7510,
        "name": "Bordeaux-Merignac",
        "height": 54,
        "country": "France"
      },
      "type": "Feature"
    },
    {
      "geometry": {
        "coordinates": [
          1.4,
          44.75
        ],
        "type": "Point"
      },
      "properties": {
        "id": 7535,
        "name": "Gourdon",
        "height": 261,
        "country": "France"
      },
      "type": "Feature"
    },
    {
      "geometry": {
        "coordinates": [
          3.02,
          44.12
        ],
        "type": "Point"
      },
      "properties": {
        "id": 7558,
        "name": "Millau",
        "height": 715,
        "country": "France"
      },
      "type": "Feature"
    },
    {
      "geometry": {
        "coordinates": [
          3.58,
          44.12
        ],
        "type": "Point"
      },
      "properties": {
        "id": 7560,
        "name": "Mont Aigoual",
        "height": 1564,
        "country": "France"
      },
      "type": "Feature"
    },
    {
      "geometry": {
        "coordinates": [
          4.73,
          44.58
        ],
        "type": "Point"
      },
      "properties": {
        "id": 7577,
        "name": "Montelimar",
        "height": 74,
        "country": "France"
      },
      "type": "Feature"
    },
    {
      "geometry": {
        "coordinates": [
          6.5,
          44.57
        ],
        "type": "Point"
      },
      "properties": {
        "id": 7591,
        "name": "Embrun",
        "height": 877,
        "country": "France"
      },
      "type": "Feature"
    },
    {
      "geometry": {
        "coordinates": [
          -0.5,
          43.91
        ],
        "type": "Point"
      },
      "properties": {
        "id": 7607,
        "name": "Mont-de-Marsan",
        "height": 59,
        "country": "France"
      },
      "type": "Feature"
    },
    {
      "geometry": {
        "coordinates": [
          0.0,
          43.19
        ],
        "type": "Point"
      },
      "properties": {
        "id": 7621,
        "name": "Tarbes-Ossun",
        "height": 364,
        "country": "France"
      },
      "type": "Feature"
    },
    {
      "geometry": {
        "coordinates": [
          1.11,
          43.01
        ],
        "type": "Point"
      },
      "properties": {
        "id": 7627,
        "name": "Saint Girons",
        "height": 411,
        "country": "France"
      },
      "type": "Feature"
    },
    {
      "geometry": {
        "coordinates": [
          1.38,
          43.62
        ],
        "type": "Point"
      },
      "properties": {
        "id": 7630,
        "name": "Toulouse Blagnac",
        "height": 150,
        "country": "France"
      },
      "type": "Feature"
    },
    {
      "geometry": {
        "coordinates": [
          3.96,
          43.58
        ],
        "type": "Point"
      },
      "properties": {
        "id": 7643,
        "name": "Montpellier",
        "height": 8,
        "country": "France"
      },
      "type": "Feature"
    },
    {
      "geometry": {
        "coordinates": [
          4.41,
          43.86
        ],
        "type": "Point"
      },
      "properties": {
        "id": 7645,
        "name": "Nimes-Courbessac",
        "height": 62,
        "country": "France"
      },
      "type": "Feature"
    },
    {
      "geometry": {
        "coordinates": [
          5.22,
          43.44
        ],
        "type": "Point"
      },
      "properties": {
        "id": 7650,
        "name": "Marseille-Marignane Airp.",
        "height": 32,
        "country": "France"
      },
      "type": "Feature"
    },
    {
      "geometry": {
        "coordinates": [
          5.94,
          43.08
        ],
        "type": "Point"
      },
      "properties": {
        "id": 7661,
        "name": "Cap Cepet",
        "height": 134,
        "country": "France"
      },
      "type": "Feature"
    },
    {
      "geometry": {
        "coordinates": [
          7.21,
          43.65
        ],
        "type": "Point"
      },
      "properties": {
        "id": 7690,
        "name": "Nice Airp.",
        "height": 26,
        "country": "France"
      },
      "type": "Feature"
    },
    {
      "geometry": {
        "coordinates": [
          2.87,
          42.74
        ],
        "type": "Point"
      },
      "properties": {
        "id": 7747,
        "name": "Perpignan",
        "height": 44,
        "country": "France"
      },
      "type": "Feature"
    },
    {
      "geometry": {
        "coordinates": [
          8.79,
          41.92
        ],
        "type": "Point"
      },
      "properties": {
        "id": 7761,
        "name": "Ajaccio",
        "height": 9,
        "country": "France"
      },
      "type": "Feature"
    },
    {
      "geometry": {
        "coordinates": [
          9.49,
          42.54
        ],
        "type": "Point"
      },
      "properties": {
        "id": 7790,
        "name": "Bastia Airp.",
        "height": 12,
        "country": "France"
      },
      "type": "Feature"
    },
    {
      "geometry": {
        "coordinates": [
          -8.42,
          43.37
        ],
        "type": "Point"
      },
      "properties": {
        "id": 8001,
        "name": "La Coruna",
        "height": 67,
        "country": "Spain"
      },
      "type": "Feature"
    },
    {
      "geometry": {
        "coordinates": [
          -8.37,
          43.31
        ],
        "type": "Point"
      },
      "properties": {
        "id": 8002,
        "name": "La Coruna/Alvedro",
        "height": 103,
        "country": "Spain"
      },
      "type": "Feature"
    },
    {
      "geometry": {
        "coordinates": [
          -7.46,
          43.11
        ],
        "type": "Point"
      },
      "properties": {
        "id": 8008,
        "name": "Lugo/Rozas",
        "height": 446,
        "country": "Spain"
      },
      "type": "Feature"
    },
    {
      "geometry": {
        "coordinates": [
          -6.04,
          43.57
        ],
        "type": "Point"
      },
      "properties": {
        "id": 8011,
        "name": "Asturias/Aviles",
        "height": 130,
        "country": "Spain"
      },
      "type": "Feature"
    },
    {
      "geometry": {
        "coordinates": [
          -5.7,
          43.56
        ],
        "type": "Point"
      },
      "properties": {
        "id": 8014,
        "name": "Gijon-Musel",
        "height": 6,
        "country": "Spain"
      },
      "type": "Feature"
    },
    {
      "geometry": {
        "coordinates": [
          -5.87,
          43.35
        ],
        "type": "Point"
      },
      "properties": {
        "id": 8015,
        "name": "Oviedo",
        "height": 339,
        "country": "Spain"
      },
      "type": "Feature"
    },
    {
      "geometry": {
        "coordinates": [
          -3.83,
          43.43
        ],
        "type": "Point"
      },
      "properties": {
        "id": 8021,
        "name": "Santander Airp.",
        "height": 1,
        "country": "Spain"
      },
      "type": "Feature"
    },
    {
      "geometry": {
        "coordinates": [
          -3.8,
          43.49
        ],
        "type": "Point"
      },
      "properties": {
        "id": 8023,
        "name": "Santander",
        "height": 59,
        "country": "Spain"
      },
      "type": "Feature"
    },
    {
      "geometry": {
        "coordinates": [
          -2.91,
          43.3
        ],
        "type": "Point"
      },
      "properties": {
        "id": 8025,
        "name": "Bilbao Airp.",
        "height": 39,
        "country": "Spain"
      },
      "type": "Feature"
    },
    {
      "geometry": {
        "coordinates": [
          -2.04,
          43.31
        ],
        "type": "Point"
      },
      "properties": {
        "id": 8027,
        "name": "San Sebastian/Igueldo",
        "height": 259,
        "country": "Spain"
      },
      "type": "Feature"
    },
    {
      "geometry": {
        "coordinates": [
          -1.79,
          43.36
        ],
        "type": "Point"
      },
      "properties": {
        "id": 8029,
        "name": "Hondarribia Airp.",
        "height": 4,
        "country": "Spain"
      },
      "type": "Feature"
    },
    {
      "geometry": {
        "coordinates": [
          -8.41,
          42.89
        ],
        "type": "Point"
      },
      "properties": {
        "id": 8042,
        "name": "Santiago de Compostela Airp.",
        "height": 367,
        "country": "Spain"
      },
      "type": "Feature"
    },
    {
      "geometry": {
        "coordinates": [
          -8.62,
          42.44
        ],
        "type": "Point"
      },
      "properties": {
        "id": 8044,
        "name": "Pontevedra",
        "height": 108,
        "country": "Spain"
      },
      "type": "Feature"
    },
    {
      "geometry": {
        "coordinates": [
          -8.62,
          42.24
        ],
        "type": "Point"
      },
      "properties": {
        "id": 8045,
        "name": "Vigo/Peinador",
        "height": 258,
        "country": "Spain"
      },
      "type": "Feature"
    },
    {
      "geometry": {
        "coordinates": [
          -7.86,
          42.33
        ],
        "type": "Point"
      },
      "properties": {
        "id": 8048,
        "name": "Orense",
        "height": 147,
        "country": "Spain"
      },
      "type": "Feature"
    },
    {
      "geometry": {
        "coordinates": [
          -6.6,
          42.56
        ],
        "type": "Point"
      },
      "properties": {
        "id": 8053,
        "name": "Ponferrada",
        "height": 550,
        "country": "Spain"
      },
      "type": "Feature"
    },
    {
      "geometry": {
        "coordinates": [
          -5.65,
          42.59
        ],
        "type": "Point"
      },
      "properties": {
        "id": 8055,
        "name": "Leon/Virgen del Camino",
        "height": 914,
        "country": "Spain"
      },
      "type": "Feature"
    },
    {
      "geometry": {
        "coordinates": [
          -3.62,
          42.36
        ],
        "type": "Point"
      },
      "properties": {
        "id": 8075,
        "name": "Burgos/Villafria",
        "height": 892,
        "country": "Spain"
      },
      "type": "Feature"
    },
    {
      "geometry": {
        "coordinates": [
          -2.73,
          42.87
        ],
        "type": "Point"
      },
      "properties": {
        "id": 8080,
        "name": "Vitoria Airp.",
        "height": 510,
        "country": "Spain"
      },
      "type": "Feature"
    },
    {
      "geometry": {
        "coordinates": [
          -2.33,
          42.45
        ],
        "type": "Point"
      },
      "properties": {
        "id": 8084,
        "name": "Logrono/Agoncillo",
        "height": 363,
        "country": "Spain"
      },
      "type": "Feature"
    },
    {
      "geometry": {
        "coordinates": [
          -1.65,
          42.78
        ],
        "type": "Point"
      },
      "properties": {
        "id": 8085,
        "name": "Pamplona/Noain",
        "height": 453,
        "country": "Spain"
      },
      "type": "Feature"
    },
    {
      "geometry": {
        "coordinates": [
          -0.33,
          42.08
        ],
        "type": "Point"
      },
      "properties": {
        "id": 8094,
        "name": "Huesca-Pirineos",
        "height": 554,
        "country": "Spain"
      },
      "type": "Feature"
    },
    {
      "geometry": {
        "coordinates": [
          -5.74,
          41.52
        ],
        "type": "Point"
      },
      "properties": {
        "id": 8130,
        "name": "Zamora",
        "height": 667,
        "country": "Spain"
      },
      "type": "Feature"
    },
    {
      "geometry": {
        "coordinates": [
          -4.86,
          41.71
        ],
        "type": "Point"
      },
      "properties": {
        "id": 8140,
        "name": "Valladolid/Villanubla",
        "height": 846,
        "country": "Spain"
      },
      "type": "Feature"
    },
    {
      "geometry": {
        "coordinates": [
          -4.75,
          41.64
        ],
        "type": "Point"
      },
      "properties": {
        "id": 8141,
        "name": "Valladolid",
        "height": 735,
        "country": "Spain"
      },
      "type": "Feature"
    },
    {
      "geometry": {
        "coordinates": [
          -2.48,
          41.78
        ],
        "type": "Point"
      },
      "properties": {
        "id": 8148,
        "name": "Soria",
        "height": 1082,
        "country": "Spain"
      },
      "type": "Feature"
    },
    {
      "geometry": {
        "coordinates": [
          -1.0,
          41.66
        ],
        "type": "Point"
      },
      "properties": {
        "id": 8160,
        "name": "Zaragoza Airp.",
        "height": 258,
        "country": "Spain"
      },
      "type": "Feature"
    },
    {
      "geometry": {
        "coordinates": [
          -0.9,
          41.63
        ],
        "type": "Point"
      },
      "properties": {
        "id": 8161,
        "name": "Zaragoza",
        "height": 222,
        "country": "Spain"
      },
      "type": "Feature"
    },
    {
      "geometry": {
        "coordinates": [
          0.6,
          41.63
        ],
        "type": "Point"
      },
      "properties": {
        "id": 8171,
        "name": "Lleida",
        "height": 199,
        "country": "Spain"
      },
      "type": "Feature"
    },
    {
      "geometry": {
        "coordinates": [
          1.18,
          41.15
        ],
        "type": "Point"
      },
      "properties": {
        "id": 8175,
        "name": "Reus Airp.",
        "height": 76,
        "country": "Spain"
      },
      "type": "Feature"
    },
    {
      "geometry": {
        "coordinates": [
          2.13,
          41.42
        ],
        "type": "Point"
      },
      "properties": {
        "id": 8180,
        "name": "Barcelona",
        "height": 180,
        "country": "Spain"
      },
      "type": "Feature"
    },
    {
      "geometry": {
        "coordinates": [
          2.07,
          41.29
        ],
        "type": "Point"
      },
      "properties": {
        "id": 8181,
        "name": "Barcelona Airp.",
        "height": 5,
        "country": "Spain"
      },
      "type": "Feature"
    },
    {
      "geometry": {
        "coordinates": [
          2.76,
          41.91
        ],
        "type": "Point"
      },
      "properties": {
        "id": 8184,
        "name": "Girona Airp.",
        "height": 129,
        "country": "Spain"
      },
      "type": "Feature"
    },
    {
      "geometry": {
        "coordinates": [
          -5.5,
          40.96
        ],
        "type": "Point"
      },
      "properties": {
        "id": 8202,
        "name": "Salamanca Airp.",
        "height": 794,
        "country": "Spain"
      },
      "type": "Feature"
    },
    {
      "geometry": {
        "coordinates": [
          -4.68,
          40.66
        ],
        "type": "Point"
      },
      "properties": {
        "id": 8210,
        "name": "Avila",
        "height": 1132,
        "country": "Spain"
      },
      "type": "Feature"
    },
    {
      "geometry": {
        "coordinates": [
          -4.13,
          40.95
        ],
        "type": "Point"
      },
      "properties": {
        "id": 8213,
        "name": "Segovia",
        "height": 1005,
        "country": "Spain"
      },
      "type": "Feature"
    },
    {
      "geometry": {
        "coordinates": [
          -4.01,
          40.79
        ],
        "type": "Point"
      },
      "properties": {
        "id": 8215,
        "name": "Navacerrada",
        "height": 1888,
        "country": "Spain"
      },
      "type": "Feature"
    },
    {
      "geometry": {
        "coordinates": [
          -3.77,
          40.7
        ],
        "type": "Point"
      },
      "properties": {
        "id": 8219,
        "name": "Colmenar Viejo/Famet",
        "height": 998,
        "country": "Spain"
      },
      "type": "Feature"
    },
    {
      "geometry": {
        "coordinates": [
          -3.56,
          40.47
        ],
        "type": "Point"
      },
      "properties": {
        "id": 8221,
        "name": "Madrid/Barajas",
        "height": 582,
        "country": "Spain"
      },
      "type": "Feature"
    },
    {
      "geometry": {
        "coordinates": [
          -3.68,
          40.41
        ],
        "type": "Point"
      },
      "properties": {
        "id": 8222,
        "name": "Madrid Retiro",
        "height": 667,
        "country": "Spain"
      },
      "type": "Feature"
    },
    {
      "geometry": {
        "coordinates": [
          -3.79,
          40.38
        ],
        "type": "Point"
      },
      "properties": {
        "id": 8223,
        "name": "Madrid/Cuatro Vientos",
        "height": 687,
        "country": "Spain"
      },
      "type": "Feature"
    },
    {
      "geometry": {
        "coordinates": [
          -3.72,
          40.3
        ],
        "type": "Point"
      },
      "properties": {
        "id": 8224,
        "name": "Getafe",
        "height": 617,
        "country": "Spain"
      },
      "type": "Feature"
    },
    {
      "geometry": {
        "coordinates": [
          -3.15,
          40.63
        ],
        "type": "Point"
      },
      "properties": {
        "id": 8226,
        "name": "Guadalajara",
        "height": 639,
        "country": "Spain"
      },
      "type": "Feature"
    },
    {
      "geometry": {
        "coordinates": [
          -3.44,
          40.48
        ],
        "type": "Point"
      },
      "properties": {
        "id": 8227,
        "name": "Torrejon de Ardoz",
        "height": 607,
        "country": "Spain"
      },
      "type": "Feature"
    },
    {
      "geometry": {
        "coordinates": [
          -2.13,
          40.07
        ],
        "type": "Point"
      },
      "properties": {
        "id": 8231,
        "name": "Cuenca",
        "height": 946,
        "country": "Spain"
      },
      "type": "Feature"
    },
    {
      "geometry": {
        "coordinates": [
          -1.88,
          40.84
        ],
        "type": "Point"
      },
      "properties": {
        "id": 8232,
        "name": "Molina de Aragon",
        "height": 1063,
        "country": "Spain"
      },
      "type": "Feature"
    },
    {
      "geometry": {
        "coordinates": [
          -1.12,
          40.35
        ],
        "type": "Point"
      },
      "properties": {
        "id": 8235,
        "name": "Teruel",
        "height": 902,
        "country": "Spain"
      },
      "type": "Feature"
    },
    {
      "geometry": {
        "coordinates": [
          0.49,
          40.82
        ],
        "type": "Point"
      },
      "properties": {
        "id": 8238,
        "name": "Tortosa",
        "height": 50,
        "country": "Spain"
      },
      "type": "Feature"
    },
    {
      "geometry": {
        "coordinates": [
          -6.34,
          39.47
        ],
        "type": "Point"
      },
      "properties": {
        "id": 8261,
        "name": "Caceres",
        "height": 391,
        "country": "Spain"
      },
      "type": "Feature"
    },
    {
      "geometry": {
        "coordinates": [
          -4.05,
          39.88
        ],
        "type": "Point"
      },
      "properties": {
        "id": 8272,
        "name": "Toledo",
        "height": 516,
        "country": "Spain"
      },
      "type": "Feature"
    },
    {
      "geometry": {
        "coordinates": [
          -1.86,
          38.95
        ],
        "type": "Point"
      },
      "properties": {
        "id": 8280,
        "name": "Albacete Airp.",
        "height": 704,
        "country": "Spain"
      },
      "type": "Feature"
    },
    {
      "geometry": {
        "coordinates": [
          -0.47,
          39.49
        ],
        "type": "Point"
      },
      "properties": {
        "id": 8284,
        "name": "Valencia Airp.",
        "height": 62,
        "country": "Spain"
      },
      "type": "Feature"
    },
    {
      "geometry": {
        "coordinates": [
          -0.37,
          39.48
        ],
        "type": "Point"
      },
      "properties": {
        "id": 8285,
        "name": "Valencia Viveros",
        "height": 11,
        "country": "Spain"
      },
      "type": "Feature"
    },
    {
      "geometry": {
        "coordinates": [
          -0.07,
          39.96
        ],
        "type": "Point"
      },
      "properties": {
        "id": 8286,
        "name": "Castellon-Alamazora",
        "height": 44,
        "country": "Spain"
      },
      "type": "Feature"
    },
    {
      "geometry": {
        "coordinates": [
          2.62,
          39.55
        ],
        "type": "Point"
      },
      "properties": {
        "id": 8301,
        "name": "Palma de Mallorca",
        "height": 6,
        "country": "Spain"
      },
      "type": "Feature"
    },
    {
      "geometry": {
        "coordinates": [
          2.71,
          39.61
        ],
        "type": "Point"
      },
      "properties": {
        "id": 8302,
        "name": "P.d. Mallorca-Son Bonet",
        "height": 41,
        "country": "Spain"
      },
      "type": "Feature"
    },
    {
      "geometry": {
        "coordinates": [
          2.74,
          39.56
        ],
        "type": "Point"
      },
      "properties": {
        "id": 8306,
        "name": "Palma de Mallorca Airp.",
        "height": 5,
        "country": "Spain"
      },
      "type": "Feature"
    },
    {
      "geometry": {
        "coordinates": [
          3.11,
          39.9
        ],
        "type": "Point"
      },
      "properties": {
        "id": 8307,
        "name": "Pollensa",
        "height": 7,
        "country": "Spain"
      },
      "type": "Feature"
    },
    {
      "geometry": {
        "coordinates": [
          4.22,
          39.85
        ],
        "type": "Point"
      },
      "properties": {
        "id": 8314,
        "name": "Aeropuerto de Menorca",
        "height": 86,
        "country": "Spain"
      },
      "type": "Feature"
    },
    {
      "geometry": {
        "coordinates": [
          -6.97,
          38.88
        ],
        "type": "Point"
      },
      "properties": {
        "id": 8329,
        "name": "Badajoz",
        "height": 195,
        "country": "Spain"
      },
      "type": "Feature"
    },
    {
      "geometry": {
        "coordinates": [
          -6.81,
          38.88
        ],
        "type": "Point"
      },
      "properties": {
        "id": 8330,
        "name": "Badajoz Airp.",
        "height": 192,
        "country": "Spain"
      },
      "type": "Feature"
    },
    {
      "geometry": {
        "coordinates": [
          -3.92,
          38.99
        ],
        "type": "Point"
      },
      "properties": {
        "id": 8348,
        "name": "Ciudad Real",
        "height": 629,
        "country": "Spain"
      },
      "type": "Feature"
    },
    {
      "geometry": {
        "coordinates": [
          -0.52,
          38.38
        ],
        "type": "Point"
      },
      "properties": {
        "id": 8358,
        "name": "Alicante/Rabasa",
        "height": 102,
        "country": "Spain"
      },
      "type": "Feature"
    },
    {
      "geometry": {
        "coordinates": [
          -0.49,
          38.37
        ],
        "type": "Point"
      },
      "properties": {
        "id": 8359,
        "name": "Alicante",
        "height": 82,
        "country": "Spain"
      },
      "type": "Feature"
    },
    {
      "geometry": {
        "coordinates": [
          -0.57,
          38.28
        ],
        "type": "Point"
      },
      "properties": {
        "id": 8360,
        "name": "Alicante/ L'Altet",
        "height": 31,
        "country": "Spain"
      },
      "type": "Feature"
    },
    {
      "geometry": {
        "coordinates": [
          1.38,
          38.88
        ],
        "type": "Point"
      },
      "properties": {
        "id": 8373,
        "name": "Ibiza Airp.",
        "height": 17,
        "country": "Spain"
      },
      "type": "Feature"
    },
    {
      "geometry": {
        "coordinates": [
          -6.91,
          37.28
        ],
        "type": "Point"
      },
      "properties": {
        "id": 8383,
        "name": "Huelva",
        "height": 20,
        "country": "Spain"
      },
      "type": "Feature"
    },
    {
      "geometry": {
        "coordinates": [
          -6.0,
          37.37
        ],
        "type": "Point"
      },
      "properties": {
        "id": 8390,
        "name": "Sevilla/Los Remedios",
        "height": 14,
        "country": "Spain"
      },
      "type": "Feature"
    },
    {
      "geometry": {
        "coordinates": [
          -5.88,
          37.42
        ],
        "type": "Point"
      },
      "properties": {
        "id": 8391,
        "name": "Sevilla Airp.",
        "height": 31,
        "country": "Spain"
      },
      "type": "Feature"
    },
    {
      "geometry": {
        "coordinates": [
          -5.61,
          37.16
        ],
        "type": "Point"
      },
      "properties": {
        "id": 8397,
        "name": "Moron de la Frontera",
        "height": 88,
        "country": "Spain"
      },
      "type": "Feature"
    },
    {
      "geometry": {
        "coordinates": [
          -4.85,
          37.85
        ],
        "type": "Point"
      },
      "properties": {
        "id": 8410,
        "name": "Cordoba Airp.",
        "height": 92,
        "country": "Spain"
      },
      "type": "Feature"
    },
    {
      "geometry": {
        "coordinates": [
          -3.81,
          37.78
        ],
        "type": "Point"
      },
      "properties": {
        "id": 8417,
        "name": "Jaen",
        "height": 580,
        "country": "Spain"
      },
      "type": "Feature"
    },
    {
      "geometry": {
        "coordinates": [
          -3.79,
          37.19
        ],
        "type": "Point"
      },
      "properties": {
        "id": 8419,
        "name": "Granada Airp.",
        "height": 570,
        "country": "Spain"
      },
      "type": "Feature"
    },
    {
      "geometry": {
        "coordinates": [
          -3.63,
          37.14
        ],
        "type": "Point"
      },
      "properties": {
        "id": 8420,
        "name": "Granada/Armilla",
        "height": 692,
        "country": "Spain"
      },
      "type": "Feature"
    },
    {
      "geometry": {
        "coordinates": [
          -1.23,
          37.96
        ],
        "type": "Point"
      },
      "properties": {
        "id": 8429,
        "name": "Murcia/Alcantarilla",
        "height": 75,
        "country": "Spain"
      },
      "type": "Feature"
    },
    {
      "geometry": {
        "coordinates": [
          -1.17,
          38.0
        ],
        "type": "Point"
      },
      "properties": {
        "id": 8430,
        "name": "Murcia",
        "height": 62,
        "country": "Spain"
      },
      "type": "Feature"
    },
    {
      "geometry": {
        "coordinates": [
          -0.8,
          37.79
        ],
        "type": "Point"
      },
      "properties": {
        "id": 8433,
        "name": "Murcia/San Javier",
        "height": 3,
        "country": "Spain"
      },
      "type": "Feature"
    },
    {
      "geometry": {
        "coordinates": [
          -6.33,
          36.64
        ],
        "type": "Point"
      },
      "properties": {
        "id": 8449,
        "name": "Rota/Base Naval",
        "height": 23,
        "country": "Spain"
      },
      "type": "Feature"
    },
    {
      "geometry": {
        "coordinates": [
          -6.06,
          36.75
        ],
        "type": "Point"
      },
      "properties": {
        "id": 8451,
        "name": "Jerez de la Frontera Airp.",
        "height": 28,
        "country": "Spain"
      },
      "type": "Feature"
    },
    {
      "geometry": {
        "coordinates": [
          -6.26,
          36.5
        ],
        "type": "Point"
      },
      "properties": {
        "id": 8452,
        "name": "Cadiz",
        "height": 9,
        "country": "Spain"
      },
      "type": "Feature"
    },
    {
      "geometry": {
        "coordinates": [
          -4.48,
          36.67
        ],
        "type": "Point"
      },
      "properties": {
        "id": 8482,
        "name": "Malaga Airp.",
        "height": 7,
        "country": "Spain"
      },
      "type": "Feature"
    },
    {
      "geometry": {
        "coordinates": [
          -2.36,
          36.85
        ],
        "type": "Point"
      },
      "properties": {
        "id": 8487,
        "name": "Almeria Airp.",
        "height": 21,
        "country": "Spain"
      },
      "type": "Feature"
    },
    {
      "geometry": {
        "coordinates": [
          -2.47,
          36.83
        ],
        "type": "Point"
      },
      "properties": {
        "id": 8488,
        "name": "Almeria",
        "height": 6,
        "country": "Spain"
      },
      "type": "Feature"
    },
    {
      "geometry": {
        "coordinates": [
          -5.35,
          36.15
        ],
        "type": "Point"
      },
      "properties": {
        "id": 8495,
        "name": "Gibraltar",
        "height": 5,
        "country": "Gibraltar"
      },
      "type": "Feature"
    },
    {
      "geometry": {
        "coordinates": [
          -31.13,
          39.45
        ],
        "type": "Point"
      },
      "properties": {
        "id": 8501,
        "name": "Flores/Acores",
        "height": 29,
        "country": "Portugal"
      },
      "type": "Feature"
    },
    {
      "geometry": {
        "coordinates": [
          -28.63,
          38.52
        ],
        "type": "Point"
      },
      "properties": {
        "id": 8506,
        "name": "Horta/Acores",
        "height": 62,
        "country": "Portugal"
      },
      "type": "Feature"
    },
    {
      "geometry": {
        "coordinates": [
          -27.09,
          38.76
        ],
        "type": "Point"
      },
      "properties": {
        "id": 8509,
        "name": "Lajes/Acores",
        "height": 54,
        "country": "Portugal"
      },
      "type": "Feature"
    },
    {
      "geometry": {
        "coordinates": [
          -25.7,
          37.74
        ],
        "type": "Point"
      },
      "properties": {
        "id": 8512,
        "name": "Ponta Delgada/Acores",
        "height": 77,
        "country": "Portugal"
      },
      "type": "Feature"
    },
    {
      "geometry": {
        "coordinates": [
          -25.67,
          37.75
        ],
        "type": "Point"
      },
      "properties": {
        "id": 8513,
        "name": "Ponta  Delgada/Acores",
        "height": 36,
        "country": "Portugal"
      },
      "type": "Feature"
    },
    {
      "geometry": {
        "coordinates": [
          -25.17,
          36.97
        ],
        "type": "Point"
      },
      "properties": {
        "id": 8515,
        "name": "Santa Maria/Acores",
        "height": 97,
        "country": "Portugal"
      },
      "type": "Feature"
    },
    {
      "geometry": {
        "coordinates": [
          -16.77,
          32.7
        ],
        "type": "Point"
      },
      "properties": {
        "id": 8521,
        "name": "Funchal/St. Cruz",
        "height": 58,
        "country": "Portugal"
      },
      "type": "Feature"
    },
    {
      "geometry": {
        "coordinates": [
          -16.9,
          32.65
        ],
        "type": "Point"
      },
      "properties": {
        "id": 8522,
        "name": "Funchal",
        "height": 58,
        "country": "Portugal"
      },
      "type": "Feature"
    },
    {
      "geometry": {
        "coordinates": [
          -16.35,
          33.07
        ],
        "type": "Point"
      },
      "properties": {
        "id": 8524,
        "name": "Porto Santo Airp.",
        "height": 82,
        "country": "Portugal"
      },
      "type": "Feature"
    },
    {
      "geometry": {
        "coordinates": [
          -9.15,
          38.72
        ],
        "type": "Point"
      },
      "properties": {
        "id": 8535,
        "name": "Lisbon",
        "height": 95,
        "country": "Portugal"
      },
      "type": "Feature"
    },
    {
      "geometry": {
        "coordinates": [
          -9.13,
          38.77
        ],
        "type": "Point"
      },
      "properties": {
        "id": 8536,
        "name": "Lisboa/Portela",
        "height": 123,
        "country": "Portugal"
      },
      "type": "Feature"
    },
    {
      "geometry": {
        "coordinates": [
          -8.68,
          41.23
        ],
        "type": "Point"
      },
      "properties": {
        "id": 8545,
        "name": "Porto/Pedras Rubras",
        "height": 69,
        "country": "Portugal"
      },
      "type": "Feature"
    },
    {
      "geometry": {
        "coordinates": [
          -8.61,
          41.13
        ],
        "type": "Point"
      },
      "properties": {
        "id": 8546,
        "name": "Porto",
        "height": 100,
        "country": "Portugal"
      },
      "type": "Feature"
    },
    {
      "geometry": {
        "coordinates": [
          -8.47,
          40.15
        ],
        "type": "Point"
      },
      "properties": {
        "id": 8548,
        "name": "Coimbra/Cernache",
        "height": 179,
        "country": "Portugal"
      },
      "type": "Feature"
    },
    {
      "geometry": {
        "coordinates": [
          -8.42,
          40.2
        ],
        "type": "Point"
      },
      "properties": {
        "id": 8549,
        "name": "Coimbra",
        "height": 140,
        "country": "Portugal"
      },
      "type": "Feature"
    },
    {
      "geometry": {
        "coordinates": [
          -7.97,
          37.02
        ],
        "type": "Point"
      },
      "properties": {
        "id": 8554,
        "name": "Faro Airp.",
        "height": 9,
        "country": "Portugal"
      },
      "type": "Feature"
    },
    {
      "geometry": {
        "coordinates": [
          -7.9,
          38.57
        ],
        "type": "Point"
      },
      "properties": {
        "id": 8557,
        "name": "Evora",
        "height": 321,
        "country": "Portugal"
      },
      "type": "Feature"
    },
    {
      "geometry": {
        "coordinates": [
          -7.89,
          38.53
        ],
        "type": "Point"
      },
      "properties": {
        "id": 8558,
        "name": "Evora Airp.",
        "height": 246,
        "country": "Portugal"
      },
      "type": "Feature"
    },
    {
      "geometry": {
        "coordinates": [
          -7.87,
          38.02
        ],
        "type": "Point"
      },
      "properties": {
        "id": 8562,
        "name": "Beja",
        "height": 247,
        "country": "Portugal"
      },
      "type": "Feature"
    },
    {
      "geometry": {
        "coordinates": [
          -7.48,
          39.83
        ],
        "type": "Point"
      },
      "properties": {
        "id": 8570,
        "name": "Castelo Branco",
        "height": 384,
        "country": "Portugal"
      },
      "type": "Feature"
    },
    {
      "geometry": {
        "coordinates": [
          -7.42,
          39.29
        ],
        "type": "Point"
      },
      "properties": {
        "id": 8571,
        "name": "Portoalegre",
        "height": 590,
        "country": "Portugal"
      },
      "type": "Feature"
    },
    {
      "geometry": {
        "coordinates": [
          -6.73,
          41.8
        ],
        "type": "Point"
      },
      "properties": {
        "id": 8575,
        "name": "Braganca",
        "height": 692,
        "country": "Portugal"
      },
      "type": "Feature"
    },
    {
      "geometry": {
        "coordinates": [
          -25.05,
          16.83
        ],
        "type": "Point"
      },
      "properties": {
        "id": 8583,
        "name": "Mindelo / Sao Vicente",
        "height": 18,
        "country": "Cape Verde"
      },
      "type": "Feature"
    },
    {
      "geometry": {
        "coordinates": [
          -23.48,
          14.94
        ],
        "type": "Point"
      },
      "properties": {
        "id": 8589,
        "name": "Praia / Sao Tiago",
        "height": 95,
        "country": "Cape Verde"
      },
      "type": "Feature"
    },
    {
      "geometry": {
        "coordinates": [
          -22.95,
          16.74
        ],
        "type": "Point"
      },
      "properties": {
        "id": 8594,
        "name": "Sal/Espargos",
        "height": 56,
        "country": "Cape Verde"
      },
      "type": "Feature"
    },
    {
      "geometry": {
        "coordinates": [
          7.89,
          54.17
        ],
        "type": "Point"
      },
      "properties": {
        "id": 10015,
        "name": "Helgoland",
        "height": 4,
        "country": "Germany"
      },
      "type": "Feature"
    },